City_ID,City,Lat,Lng,Max Temp,Humidity,Cloudiness,Wind Speed,Country,Date
0,nantucket,41.2835,-70.0995,284.23,79,75,4.12,US,1699280295
1,east london,-33.0153,27.9116,295.13,87,100,4.86,ZA,1699280180
2,edinburgh of the seven seas,-37.0676,-12.3116,287.08,96,100,11.79,SH,1699280443
3,tiksi,71.6872,128.8694,249.47,99,42,3.1,RU,1699280444
4,vorkuta,67.5,64.0,267.7,95,100,7.34,RU,1699280343
5,adamstown,-25.066,-130.1015,295.89,79,97,8.27,PN,1699280446
6,wailua homesteads,22.0669,-159.378,296.59,92,100,4.63,US,1699280447
7,port-aux-francais,-49.35,70.2167,275.37,75,33,16.26,TF,1699280449
8,grytviken,-54.2811,-36.5092,276.37,89,47,1.26,GS,1699280450
9,blackmans bay,-43.0167,147.3167,284.22,88,7,1.87,AU,1699280451
10,punta arenas,-53.15,-70.9167,285.21,54,0,3.6,CL,1699280452
11,badger,64.8,-147.5333,266.08,91,100,1.54,US,1699280453
12,st. john's,47.5649,-52.7093,276.64,69,75,5.66,CA,1699280454
13,invercargill,-46.4,168.35,279.27,87,72,1.28,NZ,1699280455
14,mount pearl,47.5166,-52.7813,276.18,69,75,5.66,CA,1699280457
15,polyarnyy,69.1989,33.4478,274.28,85,96,5.49,RU,1699280458
16,yung shue wan,22.2333,114.1167,300.0,42,32,4.66,HK,1699280459
17,tazacorte,28.629,-17.9293,296.01,72,75,8.05,ES,1699280460
18,atafu village,-8.5421,-172.5159,301.34,75,100,3.26,TK,1699280461
19,ushuaia,-54.8,-68.3,285.94,65,40,2.57,AR,1699280462
20,yokadouma,3.5167,15.05,305.4,44,55,1.77,CM,1699280343
21,college,64.8569,-147.8028,266.12,90,100,1.54,US,1699280464
22,mandapam,9.2833,79.1167,302.01,76,99,5.08,IN,1699280465
23,kuacjok,8.3002,27.9903,305.05,44,14,1.37,SS,1699280466
24,grenaa,56.4158,10.8783,283.68,86,67,7.34,DK,1699280467
25,iqaluit,63.7506,-68.5145,263.0,78,75,7.72,CA,1699280390
26,ciudad melchor muzquiz,27.8833,-101.5167,292.79,67,100,1.04,MX,1699280469
27,severo-yeniseyskiy,60.3725,93.0408,264.58,85,97,4.02,RU,1699280470
28,tazovsky,67.4667,78.7,253.22,100,86,2.9,RU,1699280471
29,bilibino,68.0546,166.4372,249.62,98,30,2.57,RU,1699280472
30,sao joao da barra,-21.6403,-41.0511,300.2,56,3,5.08,BR,1699280473
31,shakhtersk,48.0625,38.5167,285.99,91,97,3.39,UA,1699280474
32,korla,41.7597,86.1469,280.09,20,8,1.05,CN,1699280476
33,mirnyy,62.5353,113.9611,260.08,97,100,1.37,RU,1699280213
34,barranca,-10.75,-77.7667,292.39,80,96,2.77,PE,1699280478
35,thompson,55.7435,-97.8558,263.24,85,100,2.06,CA,1699280479
36,yellowknife,62.456,-114.3525,266.71,98,100,5.66,CA,1699280480
37,olonkinbyen,70.9221,-8.7187,272.46,69,100,9.53,SJ,1699280481
38,naze,28.3667,129.4833,295.66,83,85,5.48,JP,1699280482
39,boca suno,-0.7167,-77.1333,298.92,82,98,0.11,EC,1699280483
40,aquin,18.2833,-73.4,301.71,65,91,0.69,HT,1699280484
41,albany,42.6001,-73.9662,279.59,76,38,0.8,US,1699280485
42,saint-pierre,-21.3393,55.4781,297.91,80,84,6.11,RE,1699280487
43,kapuskasing,49.4169,-82.4331,270.2,93,100,5.66,CA,1699280488
44,lihue,21.9789,-159.3672,296.92,89,100,4.63,US,1699280489
45,anadyr,64.75,177.4833,258.43,84,0,6.71,RU,1699280490
46,villa mercedes,-33.6757,-65.4578,303.34,22,0,7.89,AR,1699280491
47,waitangi,-43.9535,-176.5597,284.72,95,100,2.24,NZ,1699280492
48,susuman,62.7833,148.1667,251.63,92,100,0.72,RU,1699280494
49,nouadhibou,20.931,-17.0347,303.14,35,84,7.2,MR,1699280495
50,weno,7.4515,151.8468,301.12,83,100,2.06,FM,1699280496
51,ornskoldsvik,63.2909,18.7153,276.68,100,100,2.06,SE,1699280497
52,hermanus,-34.4187,19.2345,291.84,74,100,8.1,ZA,1699279791
53,puerto natales,-51.7236,-72.4875,287.4,35,0,10.8,CL,1699280499
54,remire-montjoly,4.9167,-52.2667,305.17,62,75,6.69,GF,1699280500
55,afua,-0.1567,-50.3867,307.02,49,13,3.41,BR,1699280501
56,talnakh,69.4865,88.3972,255.89,98,97,2.66,RU,1699280502
57,guerrero negro,27.9769,-114.0611,292.28,64,0,2.47,MX,1699280503
58,saipan,15.1355,145.701,301.54,78,20,4.12,MP,1699280504
59,ust-nera,64.5667,143.2,246.39,100,81,1.22,RU,1699280505
60,jwaneng,-24.6004,24.7303,301.81,40,99,8.35,BW,1699280506
61,akureyri,65.6835,-18.0878,273.11,93,100,3.6,IS,1699280440
62,isafjordur,66.0755,-23.124,274.17,64,75,5.14,IS,1699280508
63,palikir - national government center,6.9248,158.1611,298.56,89,100,3.09,FM,1699280509
64,kapa'a,22.0752,-159.319,297.33,92,100,4.63,US,1699280510
65,fale old settlement,-9.3852,-171.2468,300.81,78,98,4.68,TK,1699280512
66,muna,20.4833,-89.7167,297.72,75,100,3.07,MX,1699280513
67,namtsy,62.7161,129.6658,247.99,100,46,1.61,RU,1699280514
68,port lincoln,-34.7333,135.8667,286.39,86,0,5.81,AU,1699280515
69,alibag,18.6411,72.8792,304.19,65,90,3.85,IN,1699280516
70,margate,51.3813,1.3862,287.42,66,10,4.47,GB,1699280517
71,kingston,17.997,-76.7936,304.68,66,20,3.09,JM,1699280518
72,sucre,-19.0333,-65.2627,292.1,51,13,3.66,BO,1699280519
73,hawaiian paradise park,19.5933,-154.9731,294.84,96,100,0.0,US,1699280520
74,bulata,9.8599,122.4016,301.25,81,13,3.63,PH,1699280521
75,choyr,46.3611,108.3611,260.44,93,100,1.07,MN,1699280523
76,port mathurin,-19.6833,63.4167,298.28,75,4,3.33,MU,1699280524
77,midvagur,62.0511,-7.1939,281.61,81,75,4.63,FO,1699280525
78,constantia,44.1833,28.65,293.54,50,0,5.46,RO,1699280254
79,catabola,-12.15,17.2833,297.73,57,86,3.62,AO,1699280527
80,igarka,67.4667,86.5833,250.74,100,78,1.37,RU,1699280528
81,flin flon,54.7682,-101.865,265.06,93,100,4.63,CA,1699280529
82,puerto deseado,-47.7503,-65.8938,289.55,35,30,7.8,AR,1699280530
83,illizi,26.4833,8.4667,309.04,7,0,3.78,DZ,1699280532
84,mirny,62.5353,113.9611,260.08,97,100,1.37,RU,1699280533
85,crane,31.3974,-102.3501,290.76,52,61,2.74,US,1699280534
86,bethel,41.3712,-73.414,282.34,62,0,1.54,US,1699280535
87,klyuchi,52.2667,79.1667,271.8,74,95,3.77,RU,1699280536
88,port alfred,-33.5906,26.891,291.58,96,100,1.79,ZA,1699280537
89,flying fish cove,-10.4217,105.6791,298.97,88,75,3.6,CX,1699280538
90,aripuana,-9.1667,-60.6333,309.89,35,21,1.6,BR,1699280539
91,stanley,54.868,-1.6985,283.44,83,40,2.57,GB,1699280540
92,saint-cyr-sur-loire,47.4,0.6667,286.41,72,75,7.72,FR,1699280340
93,aasiaat,68.7098,-52.8699,262.0,85,100,3.62,GL,1699280542
94,jesup,31.6074,-81.8854,292.11,52,0,0.0,US,1699280543
95,colares,38.7992,-9.4469,291.67,56,20,8.05,PT,1699280544
96,nova sintra,14.8667,-24.7167,296.84,75,97,8.36,CV,1699280545
97,sisimiut,66.9395,-53.6735,268.42,76,100,3.39,GL,1699280546
98,gulf shores,30.246,-87.7008,292.62,70,0,2.06,US,1699280548
99,kodiak,57.79,-152.4072,266.88,79,0,2.57,US,1699280549
100,alaghsas,17.0187,8.0168,309.09,7,0,4.12,NE,1699280550
101,kirakira,-10.4544,161.9205,298.97,88,100,2.79,SB,1699280551
102,jamestown,42.097,-79.2353,282.92,79,0,2.57,US,1699280552
103,uturoa,-16.7333,-151.4333,298.93,81,35,5.18,PF,1699280553
104,wynyard,-41.0,145.7167,285.36,89,33,4.83,AU,1699280555
105,olyokminsk,60.3736,120.4264,258.06,96,91,0.69,RU,1699280556
106,new norfolk,-42.7826,147.0587,284.87,98,2,0.86,AU,1699280557
107,papatowai,-46.5619,169.4708,280.19,88,96,1.42,NZ,1699280558
108,cabo san lucas,22.8909,-109.9124,301.35,61,99,0.89,MX,1699280559
109,qaqortoq,60.7167,-46.0333,273.18,55,100,6.02,GL,1699280560
110,kafr az zayyat,30.8248,30.8181,304.81,20,0,4.37,EG,1699280561
111,caleta de carquin,-11.0925,-77.6267,293.13,79,73,3.24,PE,1699280562
112,holualoa,19.6228,-155.9522,295.25,71,0,2.57,US,1699280563
113,tolanaro,-25.0319,46.9987,298.19,69,40,10.8,MG,1699280564
114,praia,14.9215,-23.5087,303.45,58,75,10.29,CV,1699280565
115,porangatu,-13.4408,-49.1486,311.41,29,75,2.43,BR,1699280566
116,sitka,57.0531,-135.33,281.09,87,100,1.54,US,1699280567
117,smithers,54.7804,-127.1743,274.33,100,100,3.09,CA,1699280568
118,mil'kovo,55.6078,37.7956,284.26,94,100,5.7,RU,1699280569
119,sinabang,2.4803,96.3801,299.37,85,100,1.76,ID,1699280570
120,villa de cos,23.2833,-102.35,285.1,57,74,1.49,MX,1699280571
121,kulhudhuffushi,6.6221,73.07,300.78,73,82,1.1,MV,1699280573
122,petropavlovsk-kamchatsky,53.0452,158.6483,268.4,72,75,4.47,RU,1699280434
123,hasaki,35.7333,140.8333,295.37,83,100,13.17,JP,1699280575
124,lompoc,34.6391,-120.4579,289.7,91,100,5.81,US,1699280576
125,lebu,-37.6167,-73.65,287.24,72,100,5.38,CL,1699280578
126,houlton,46.1262,-67.8403,272.99,59,0,4.12,US,1699280579
127,phan thiet,10.9333,108.1,298.86,89,100,3.58,VN,1699280580
128,udachny,66.4167,112.4,254.64,100,82,1.93,RU,1699280581
129,gondal,21.9667,70.8,303.42,23,100,3.92,IN,1699280582
130,port saint john's,-31.6229,29.5448,298.05,76,94,3.18,ZA,1699280583
131,luderitz,-26.6481,15.1594,292.13,64,0,7.27,NA,1699280584
132,magadan,59.5667,150.8,259.53,73,0,3.53,RU,1699280285
133,tura,25.5198,90.2201,292.41,89,0,1.52,IN,1699280586
134,silistra,44.1167,27.2667,293.66,33,0,6.44,BG,1699280537
135,puerto ayacucho,5.6639,-67.6236,300.7,84,99,1.15,VE,1699280588
136,sovetskaya gavan',48.9723,140.2878,271.54,44,100,7.91,RU,1699280589
137,margaret river,-33.95,115.0667,287.77,85,8,4.65,AU,1699280590
138,felnac,46.1167,21.15,289.78,61,40,1.54,RO,1699280591
139,oriximina,-1.7656,-55.8661,308.7,38,27,2.31,BR,1699280592
140,salinopolis,-0.6136,-47.3561,303.58,66,31,5.53,BR,1699280593
141,dagda,56.0951,27.5372,280.29,94,100,2.82,LV,1699280594
142,west island,-12.1568,96.8225,299.14,78,40,6.69,CC,1699280595
143,castillos,-34.1667,-53.8333,293.7,57,0,4.01,UY,1699280596
144,yibin,28.7667,104.6238,292.78,69,20,1.08,CN,1699280597
145,georgetown,5.4112,100.3354,302.11,84,40,1.54,MY,1699280442
146,jucas,-6.5253,-39.5275,307.65,38,86,2.77,BR,1699280599
147,chipinge,-20.1883,32.6236,303.87,25,11,4.48,ZW,1699280600
148,taoudenni,22.6783,-3.9836,309.09,10,1,2.44,ML,1699280601
149,mbandaka,0.0487,18.2603,301.49,67,100,0.69,CD,1699280602
150,bodaybo,57.8506,114.1933,264.49,95,100,0.35,RU,1699280603
151,tateyama,34.9833,139.8667,297.65,84,100,12.02,JP,1699280604
152,puerto ayora,-0.7393,-90.3518,300.13,84,96,3.58,EC,1699280605
153,roma,43.2128,-75.4557,280.02,76,0,3.09,US,1699280310
154,happy valley-goose bay,53.3168,-60.3315,272.32,51,75,14.4,CA,1699280594
155,qamdo,31.1667,97.2333,271.36,32,3,0.63,CN,1699280608
156,lodja,-3.4833,23.4333,298.75,77,96,2.16,CD,1699280609
157,kili,5.6439,169.1211,299.82,88,100,7.83,MH,1699280611
158,edson,53.5835,-116.4356,268.23,93,0,1.03,CA,1699280612
159,ribeira grande,38.5167,-28.7,292.37,59,20,5.81,PT,1699280613
160,fortuna,40.5982,-124.1573,287.96,96,100,0.0,US,1699280614
161,ilulissat,69.2167,-51.1,270.16,43,75,8.23,GL,1699280615
162,belozersk,60.0326,37.7957,279.81,92,100,8.49,RU,1699280616
163,bredasdorp,-34.5322,20.0403,293.77,56,100,6.94,ZA,1699280617
164,port hedland,-20.3167,118.5667,302.18,54,45,2.57,AU,1699280618
165,lethem,3.3803,-59.7968,307.17,47,92,4.26,GY,1699280619
166,plaza huincul,-38.926,-69.2086,294.34,10,65,2.68,AR,1699280458
167,manokwari,-0.8667,134.0833,299.42,85,100,2.58,ID,1699280621
168,mogocha,53.7333,119.7667,261.33,48,100,0.28,RU,1699280622
169,cienaga,11.007,-74.2476,304.25,74,20,3.09,CO,1699280623
170,tadine,-21.55,167.8833,293.32,73,5,4.75,NC,1699280624
171,lata,40.1629,-8.3327,287.64,73,42,4.06,PT,1699280625
172,dryden,49.7833,-92.7503,271.31,93,100,4.63,CA,1699280626
173,nemuro,43.3236,145.575,288.49,90,100,14.9,JP,1699280627
174,selfoss,63.9331,-20.9971,277.62,57,90,5.9,IS,1699280628
175,onguday,50.75,86.15,263.11,91,100,0.55,RU,1699280629
176,kavaratti,10.5669,72.642,301.38,75,87,4.66,IN,1699280630
177,bambanglipuro,-7.95,110.2833,298.97,85,100,1.79,ID,1699280631
178,ketchikan,55.3422,-131.6461,282.41,93,100,3.09,US,1699280633
179,kalmunai,7.4167,81.8167,300.21,81,76,2.29,LK,1699280634
180,ballina,-28.8667,153.5667,289.14,78,58,1.58,AU,1699280635
181,mount pleasant,32.7941,-79.8626,292.62,71,0,1.54,US,1699280636
182,northam,51.0333,-4.2167,285.16,79,18,8.27,GB,1699280637
183,san patricio,28.017,-97.5169,297.07,81,100,3.29,US,1699280638
184,jianshui,23.6363,102.8264,288.79,97,56,1.52,CN,1699280639
185,tshabong,-26.05,22.45,308.58,8,64,9.59,BW,1699280640
186,longyearbyen,78.2186,15.6401,259.06,72,20,6.17,SJ,1699280641
187,chandler,33.3062,-111.8412,294.52,31,0,3.6,US,1699280642
188,candon,17.1947,120.4517,299.08,86,24,1.63,PH,1699280643
189,loiza,18.4313,-65.8802,304.71,72,20,1.54,PR,1699280644
190,fada,9.5667,8.3,305.28,35,93,2.4,NG,1699280645
191,alice springs,-23.7,133.8833,293.9,18,9,0.0,AU,1699280646
192,camapua,-19.5314,-54.0439,311.01,17,0,1.37,BR,1699280648
193,san antonio de pale,-1.4014,5.6325,299.52,83,53,5.8,GQ,1699280649
194,tokar,18.4254,37.729,304.31,61,48,5.99,SD,1699280651
195,xining,36.6167,101.7667,278.89,22,9,0.75,CN,1699280652
196,mogadishu,2.0371,45.3438,300.94,73,100,2.02,SO,1699280397
197,elliot lake,46.3834,-82.6331,279.56,93,100,6.53,CA,1699280654
198,itacare,-14.2775,-38.9967,298.45,90,100,0.67,BR,1699280655
199,nar'yan-mar,67.6713,53.087,274.88,100,100,8.94,RU,1699280656
200,iwanai,42.9744,140.5089,288.76,98,100,2.8,JP,1699280658
201,prince rupert,54.3161,-130.3201,281.98,98,100,4.12,CA,1699280536
202,san pedro,14.35,121.0167,301.72,84,75,2.57,PH,1699280660
203,vilyuchinsk,52.9306,158.4028,269.22,74,28,2.55,RU,1699280661
204,chonchi,-42.6128,-73.8092,287.1,91,92,2.68,CL,1699280662
205,skjern,55.95,8.5,284.55,88,20,1.54,DK,1699280663
206,ormara,25.2088,64.6357,300.19,62,0,3.5,PK,1699280664
207,codrington,-38.2667,141.9667,286.54,89,5,2.02,AU,1699280665
208,al kharj,24.155,47.3346,304.47,26,9,3.52,SA,1699280666
209,iskateley,67.6803,53.1512,274.83,100,100,8.94,RU,1699280667
210,sablayan,12.8346,120.769,301.13,77,24,2.61,PH,1699280668
211,sarangani,5.4033,125.4636,301.99,76,35,3.9,PH,1699280669
212,broome,42.2506,-75.833,279.08,75,0,3.09,US,1699280670
213,altai,46.3722,96.2583,261.08,83,43,1.49,MN,1699280671
214,noumea,-22.2763,166.4572,292.14,77,23,3.49,NC,1699280672
215,thunder bay,48.4001,-89.3168,277.14,93,100,2.57,CA,1699280673
216,santa luzia,-19.7697,-43.8514,300.8,54,42,3.6,BR,1699280675
217,murghob,38.1702,73.9667,271.56,36,52,0.6,TJ,1699280676
218,yuzhno-kurilsk,44.0306,145.8556,288.36,95,100,10.24,RU,1699280677
219,djibo,14.1022,-1.6306,311.1,13,30,3.57,BF,1699280678
220,urangan,-25.3,152.9,294.62,68,5,5.77,AU,1699280679
221,quellon,-43.1167,-73.6167,285.17,94,84,5.33,CL,1699280680
222,acarau,-2.8856,-40.12,304.11,55,78,6.95,BR,1699280681
223,morondava,-20.2833,44.2833,300.65,72,0,6.12,MG,1699280683
224,whitehorse,60.7161,-135.0538,271.58,86,75,9.26,CA,1699280684
225,tortosa,40.8125,0.5216,293.29,31,4,6.84,ES,1699280685
226,calca,-13.3333,-71.95,292.79,60,79,2.0,PE,1699280686
227,enewetak,11.3474,162.3373,301.43,78,100,7.84,MH,1699280687
228,sorong,-0.8833,131.25,299.15,88,76,3.45,ID,1699280688
229,tanjung pandan,-2.75,107.65,299.39,85,96,1.88,ID,1699280689
230,broken hill,-31.95,141.4333,297.09,33,55,4.34,AU,1699280690
231,zhangye,38.9342,100.4517,276.9,31,22,0.87,CN,1699280691
232,uludere,37.445,42.8617,287.52,56,2,1.88,TR,1699280692
233,radford,37.1318,-80.5764,287.04,71,0,0.0,US,1699280693
234,port elizabeth,-33.918,25.5701,293.2,84,100,5.14,ZA,1699280464
235,chu,43.5983,73.7614,283.57,43,100,3.25,KZ,1699280695
236,pangai,-19.8,-174.35,297.47,72,100,5.99,TO,1699280696
237,talcahuano,-36.7167,-73.1167,286.97,72,75,4.63,CL,1699280459
238,patterson,37.4716,-121.1297,290.25,84,90,2.05,US,1699280698
239,kayan,16.9056,96.5631,303.23,83,5,2.9,MM,1699280699
240,aroma,15.8167,36.1333,308.46,28,65,2.71,SD,1699280700
241,al ghayzah,16.2079,52.176,301.23,64,0,5.18,YE,1699280701
242,contamana,-7.3333,-75.0167,297.86,80,100,0.21,PE,1699280702
243,padangsidempuan,1.3667,99.2667,296.12,99,100,0.87,ID,1699280704
244,carnarvon,-24.8667,113.6333,294.5,82,97,8.58,AU,1699280705
245,barrouallie,13.2333,-61.2667,301.94,84,75,4.12,VC,1699280706
246,kelso,46.1468,-122.9084,285.13,95,100,3.13,US,1699280707
247,ancud,-41.8697,-73.8203,284.95,94,100,5.35,CL,1699280678
248,granada,37.25,-3.25,285.99,41,6,4.26,ES,1699280707
249,antsirabe,-19.85,47.0333,292.68,75,83,0.95,MG,1699280505
250,cidreira,-30.1811,-50.2056,292.88,69,7,7.04,BR,1699280711
251,maceio,-9.6658,-35.7353,302.84,65,75,4.63,BR,1699280602
252,kolokani,13.5728,-8.0339,311.09,9,5,3.18,ML,1699280714
253,togur,58.3631,82.8265,267.67,89,96,6.71,RU,1699280716
254,dhuusamarreeb,5.535,46.3861,298.76,79,100,2.49,SO,1699280717
255,la sarre,48.8002,-79.1996,269.41,95,100,4.88,CA,1699280718
256,vernon,50.2581,-119.2691,279.98,93,100,2.06,CA,1699280719
257,yarmouth,41.7057,-70.2286,283.2,74,100,5.81,US,1699280720
258,san andres,12.5847,-81.7006,300.16,94,40,1.54,CO,1699280721
259,corumba,-19.0092,-57.6533,306.1,27,0,4.12,BR,1699280722
260,touros,-5.1989,-35.4608,303.06,55,64,5.57,BR,1699280714
261,nikfer,37.4054,29.1373,292.8,47,0,2.46,TR,1699280724
262,oranjemund,-28.55,16.4333,292.05,66,44,5.55,NA,1699280725
263,dhidhdhoo,6.8833,73.1,300.65,75,58,0.54,MV,1699280726
264,san luis de la loma,17.2706,-100.8939,299.11,79,11,1.53,MX,1699280727
265,marand,38.4329,45.7749,288.32,39,0,0.73,IR,1699280728
266,fairmont,39.4851,-80.1426,283.31,78,72,1.96,US,1699280729
267,kharp,66.8014,65.8081,265.77,96,100,1.41,RU,1699280730
268,minas de marcona,-15.2119,-75.1103,290.57,67,69,5.06,PE,1699280732
269,playa blanca,28.8643,-13.8281,298.26,64,46,10.48,ES,1699280733
270,west sayville,40.7279,-73.0976,284.94,69,20,5.14,US,1699280734
271,san julian,21.0167,-102.1667,284.03,51,5,1.13,MX,1699280735
272,kilindoni,-7.9139,39.6668,300.19,79,100,4.69,TZ,1699280737
273,puerto baquerizo moreno,-0.9,-89.6,300.7,65,40,5.66,EC,1699280738
274,owando,-0.4819,15.8999,302.78,62,100,1.26,CG,1699280739
275,batamshinskiy,50.5594,58.2747,279.17,73,100,4.83,KZ,1699280740
276,el granada,37.5027,-122.4694,290.26,91,100,5.66,US,1699280741
277,zeya,53.75,127.2667,260.09,70,0,2.28,RU,1699280742
278,greymouth,-42.4667,171.2,280.37,84,8,3.2,NZ,1699280743
279,sola,-13.8833,167.55,299.51,81,100,8.82,VU,1699280744
280,wajir,1.7471,40.0573,299.13,94,75,2.06,KE,1699280745
281,colac,-38.3333,143.5833,288.8,83,16,2.59,AU,1699280746
282,sawai madhopur,25.9833,76.3667,298.61,31,3,1.44,IN,1699280747
283,gomez palacio,25.5667,-103.5,289.08,51,75,2.57,MX,1699280748
284,yulinshi,38.2906,109.7494,275.59,29,0,3.45,CN,1699280749
285,nadi,-17.8,177.4167,297.15,83,40,1.54,FJ,1699280750
286,gabane,-24.6667,25.7822,304.88,27,99,3.43,BW,1699280751
287,princeville,45.7668,-61.2985,279.06,68,100,1.54,CA,1699280752
288,kailua-kona,19.6406,-155.9956,297.32,71,0,2.57,US,1699280753
289,utrik,11.2278,169.8474,300.96,72,100,9.43,MH,1699280754
290,richards bay,-28.783,32.0377,300.54,67,49,7.62,ZA,1699280478
291,avarua,-21.2078,-159.775,295.18,64,75,4.63,CK,1699280758
292,hanzhong,33.0728,107.0303,284.59,61,0,0.49,CN,1699280499
293,tsiombe,-25.3,45.4833,298.54,68,35,7.51,MG,1699280760
294,papao,-17.75,-149.55,296.97,85,52,5.17,PF,1699280761
295,nogliki,51.8333,143.1667,267.23,72,92,9.83,RU,1699280762
296,roberval,48.5168,-72.2324,269.4,74,75,2.06,CA,1699280763
297,rabigh,22.7986,39.0349,304.13,63,7,5.47,SA,1699280764
298,binkolo,8.9533,-11.9779,304.92,62,31,0.85,SL,1699280765
299,san jose del guaviare,2.5729,-72.6459,298.45,87,100,2.32,CO,1699280766
300,hilton,43.2881,-77.7933,280.47,77,100,1.79,US,1699280767
301,vadso,70.0744,29.7487,273.64,93,75,2.57,NO,1699280768
302,laboe,54.4,10.2167,283.26,81,100,6.17,DE,1699280769
303,plastun,44.7561,136.2939,276.82,89,100,5.52,RU,1699280770
304,valley center,33.2184,-117.0342,292.33,50,0,1.83,US,1699280771
305,arish,31.1316,33.7984,301.25,54,0,3.09,EG,1699280772
306,jiaojiang,28.6803,121.4428,288.06,60,100,2.96,CN,1699280773
307,ebon,4.582,168.6964,300.89,78,100,3.79,MH,1699280774
308,new smyrna beach,29.0258,-80.927,295.98,83,0,3.09,US,1699280775
309,filadelfia,39.9523,-75.1638,284.69,62,75,4.12,US,1699280616
310,shiprock,36.7855,-108.687,277.34,36,48,3.25,US,1699280778
311,aral,40.5156,81.2636,284.57,22,89,2.5,CN,1699280779
312,mossel bay,-34.1831,22.146,293.11,72,82,3.15,ZA,1699280780
313,santa rosa,14.3122,121.1114,302.14,88,99,3.77,PH,1699280781
314,nizhneudinsk,54.9076,99.0276,263.61,91,100,1.38,RU,1699280782
315,dubbo,-32.25,148.6167,289.22,67,48,7.72,AU,1699280783
316,praia da vitoria,38.7333,-27.0667,292.29,52,20,2.75,PT,1699280784
317,mangrol,21.1167,70.1167,301.09,65,86,2.73,IN,1699280527
318,phan rang-thap cham,11.5667,108.9833,298.59,85,99,2.72,VN,1699280786
319,gadzhiyevo,69.2551,33.3362,274.11,85,95,5.52,RU,1699280788
320,isangel,-19.55,169.2667,295.95,83,96,4.56,VU,1699280789
321,saint-philippe,-21.3585,55.7679,294.88,81,96,5.42,RE,1699280790
322,sardarapat,40.1321,44.0097,291.09,38,7,2.21,AM,1699280791
323,faranah,10.0404,-10.7434,305.93,43,28,2.02,GN,1699280792
324,labrador city,52.9463,-66.9114,267.1,79,75,6.17,CA,1699280793
325,port blair,11.6667,92.75,301.3,79,100,2.76,IN,1699280794
326,tralee,52.2704,-9.7026,284.29,76,20,4.12,IE,1699280795
327,dunedin,-45.8742,170.5036,283.04,66,63,1.34,NZ,1699280796
328,durban,-29.8579,31.0292,298.66,85,56,5.83,ZA,1699280224
329,kruisfontein,-34.0033,24.7314,291.97,66,89,5.77,ZA,1699280798
330,as saffaniyah,27.9708,48.73,299.65,49,32,3.98,SA,1699280799
331,newport,51.5877,-2.9984,286.46,79,52,8.03,GB,1699280714
332,kuraymah,18.55,31.85,310.3,18,2,0.6,SD,1699280801
333,brookings,44.3114,-96.7984,280.4,90,0,5.14,US,1699280802
334,la libertad,-2.2333,-80.9,297.96,78,75,4.12,EC,1699280803
335,kirsehir,39.3333,34.1667,291.12,45,0,5.75,TR,1699280805
336,nola,40.922,14.5329,295.1,73,19,3.56,IT,1699280603
337,kiskunhalas,46.434,19.4848,289.05,68,56,3.3,HU,1699280807
338,burela de cabo,43.65,-7.4,286.58,68,39,7.86,ES,1699280808
339,zhob,31.3411,69.4481,290.0,53,100,2.03,PK,1699280809
340,malango,-2.9627,119.9001,292.93,97,46,1.01,ID,1699280810
341,trindade,-16.6494,-49.4889,306.01,32,42,2.81,BR,1699280718
342,peace river,56.2501,-117.286,273.32,100,75,1.54,CA,1699280812
343,paracuru,-3.41,-39.0306,302.1,55,75,5.95,BR,1699280813
344,waingapu,-9.6567,120.2641,299.81,79,74,1.21,ID,1699280814
345,redkino,56.6475,36.2967,284.32,93,100,4.31,RU,1699280815
346,katsuura,35.1333,140.3,295.7,85,100,12.09,JP,1699280817
347,kem',64.9555,34.5793,274.68,100,100,2.04,RU,1699280686
348,martinsicuro,42.8811,13.9145,296.45,38,85,2.97,IT,1699280819
349,hirara,24.8,125.2833,299.07,88,75,8.23,JP,1699280821
350,grand gaube,-20.0064,57.6608,297.8,74,32,2.68,MU,1699280822
351,la'ie,21.6477,-157.9253,299.13,82,74,1.79,US,1699280823
352,oak bay,48.4496,-123.3026,284.99,94,75,3.6,CA,1699280824
353,coahuayana de hidalgo,18.7,-103.6583,297.72,76,9,1.39,MX,1699280825
354,guadalupe y calvo,26.1,-106.9667,285.2,61,98,1.79,MX,1699280826
355,hausjarvi,60.7833,24.9333,280.7,99,100,0.48,FI,1699280827
356,gejiu,23.306,103.1635,284.4,92,35,1.52,CN,1699280828
357,belyy yar,53.6039,91.3903,269.09,63,0,6.0,RU,1699280829
358,kourou,5.1552,-52.6478,305.18,65,39,4.71,GF,1699280830
359,tot'ma,59.9747,42.7642,281.07,90,100,5.33,RU,1699280831
360,caluula,11.9661,50.7569,300.37,71,100,4.62,SO,1699280832
361,vorgashor,67.5833,63.95,267.72,94,100,7.63,RU,1699280833
362,aykhal,66.0,111.5,255.65,100,99,1.82,RU,1699280834
363,novska,45.3406,16.9769,291.54,54,30,3.71,HR,1699280835
364,afaahiti,-17.75,-149.2833,296.08,85,47,5.1,PF,1699280836
365,tofol,5.3248,163.0078,301.28,78,100,7.09,FM,1699280837
366,chibougamau,49.9168,-74.3659,266.94,79,20,4.12,CA,1699280838
367,montelibano,7.9829,-75.4229,299.55,88,90,2.71,CO,1699280839
368,sumbawa besar,-8.5,117.4333,297.58,80,11,1.61,ID,1699280840
369,shahrud,36.4182,54.9763,288.68,46,24,2.29,IR,1699280841
370,hilo,19.7297,-155.09,294.97,97,100,1.79,US,1699280842
371,shawinigan,46.5668,-72.7491,270.73,68,26,1.03,CA,1699280844
372,portland,45.5234,-122.6762,284.73,96,100,3.6,US,1699280845
373,pacific grove,36.6177,-121.9166,288.39,92,100,0.0,US,1699280846
374,okahao,-17.885,15.0667,307.67,10,97,2.27,NA,1699280847
375,colonia,50.9333,6.95,286.46,69,75,6.17,DE,1699280594
376,khor,47.8861,134.9464,270.62,93,100,10.77,RU,1699280849
377,acapulco de juarez,16.8634,-99.8901,299.75,79,60,1.5,MX,1699280850
378,emerald,-23.5333,148.1667,293.34,75,26,6.86,AU,1699280851
379,agulu,6.11,7.0724,304.89,61,76,1.53,NG,1699280852
380,maxixe,-23.8597,35.3472,302.05,54,20,4.63,MZ,1699280853
381,cooper's town,26.8667,-77.5167,297.9,77,5,7.94,BS,1699280854
382,wicklow,53.0,-6.4167,282.08,83,100,5.82,IE,1699280855
383,khanty-mansiysk,61.0042,69.0019,271.21,80,0,2.0,RU,1699280856
384,kirishi,59.4471,32.0205,279.28,97,100,1.98,RU,1699280857
385,alofi,-19.0595,-169.9187,296.09,78,96,3.6,NU,1699280858
386,mhamid,29.82,-5.72,301.25,24,28,2.58,MA,1699280859
387,zaragoza,41.6561,-0.8773,290.4,30,20,8.23,ES,1699280608
388,luwuk,-0.9516,122.7875,299.07,82,96,1.71,ID,1699280861
389,mejit,10.2753,170.8646,301.07,72,100,9.95,MH,1699280862
390,kyrenia,35.3417,33.3167,302.9,66,0,7.37,CY,1699280864
391,strensall,54.04,-1.0351,284.81,80,98,6.08,GB,1699280865
392,dalbandin,28.8947,64.4101,295.29,39,36,5.63,PK,1699280866
393,tual,-5.6667,132.75,300.82,81,84,5.88,ID,1699280867
394,xo'jaobod,40.666,72.5682,283.58,20,100,0.93,UZ,1699280868
395,shingu,33.7333,135.9833,295.23,95,100,4.09,JP,1699280869
396,nong bua,15.8646,100.5858,299.65,84,68,1.14,TH,1699280870
397,doaba,33.4244,70.7364,293.33,42,42,1.1,PK,1699280871
398,mikhaylovskoye,51.8239,79.7172,270.59,77,99,3.2,RU,1699280872
399,berezovyy,51.6667,135.7,263.09,62,80,1.84,RU,1699280873
400,bathsheba,13.2167,-59.5167,302.49,84,75,7.72,BB,1699280874
401,loa janan,-0.583,117.095,297.61,95,99,0.8,ID,1699280875
402,halifax,44.6453,-63.5724,278.43,65,20,3.09,CA,1699280876
403,shahrak,34.1074,64.3052,280.32,76,100,1.1,AF,1699280877
404,road town,18.4167,-64.6167,302.2,83,40,3.6,VG,1699280879
405,fonte boa,-2.4959,-66.2662,302.38,77,54,1.58,BR,1699280881
406,madalena,41.2162,-8.3345,288.21,77,23,4.22,PT,1699280882
407,castelo branco,39.8222,-7.4909,289.26,53,27,5.01,PT,1699280654
408,lautoka,-17.6167,177.4667,297.07,83,40,1.54,FJ,1699280884
409,grajau,-5.8194,-46.1386,307.4,45,85,3.19,BR,1699280885
410,zhigalovo,54.8097,105.1578,262.88,98,100,1.24,RU,1699280617
411,culebra,18.303,-65.301,304.17,70,100,2.39,PR,1699280887
412,trujillo,-8.116,-79.03,292.13,88,100,4.12,PE,1699280613
413,labytnangi,66.6572,66.4183,266.82,96,100,3.02,RU,1699280889
414,las varillas,-31.8721,-62.7195,297.22,40,0,5.42,AR,1699280890
415,porto novo,6.4965,2.6036,305.05,75,99,3.19,BJ,1699280606
416,peterhead,57.5058,-1.7981,284.37,77,97,1.9,GB,1699280892
417,mamuju,-2.6748,118.8885,299.75,83,43,1.58,ID,1699280893
418,canavieiras,-15.675,-38.9472,296.09,96,100,4.91,BR,1699280894
419,santa cruz,-17.8,-63.1667,306.18,49,11,7.2,BO,1699280895
420,kerikeri,-35.2268,173.9474,281.99,89,2,2.19,NZ,1699280897
421,keetmanshoop,-26.5833,18.1333,300.66,7,3,5.14,NA,1699280898
422,lerwick,60.1545,-1.1494,282.15,85,88,3.12,GB,1699280862
423,nuuk,64.1835,-51.7216,274.49,40,75,5.66,GL,1699280900
424,lashio,22.9333,97.75,291.16,96,25,0.64,MM,1699280901
425,al jawf,29.5,38.75,300.88,33,0,1.57,SA,1699280902
426,keflavik,64.0049,-22.5624,278.39,56,75,6.17,IS,1699280903
427,tossa de mar,41.7325,2.9338,291.05,40,66,4.21,ES,1699280618
428,gapyeong,37.831,127.5106,281.32,83,94,7.66,KR,1699280905
429,qa'en,33.7265,59.1844,288.0,56,59,1.64,IR,1699280906
430,rongelap,11.1635,166.8941,301.25,75,100,9.55,MH,1699280907
431,pochep,52.9336,33.4464,283.07,84,98,5.53,RU,1699280908
432,khandyga,62.6667,135.6,241.33,99,21,1.11,RU,1699280909
433,mahibadhoo,3.7833,72.9667,300.6,79,96,3.52,MV,1699280910
434,bangor,54.6534,-5.669,284.87,83,37,5.66,GB,1699280911
435,effium,6.6292,8.0593,304.67,62,64,1.0,NG,1699280912
436,mayya,61.7333,130.2811,247.77,99,48,1.91,RU,1699280913
437,rio grande,-32.035,-52.0986,297.21,65,0,6.05,BR,1699280718
438,douz,33.4663,9.0203,304.12,17,0,2.38,TN,1699280663
439,yeppoon,-23.1333,150.7333,293.03,72,62,6.25,AU,1699280917
440,san,13.3034,-4.8956,311.79,20,34,2.12,ML,1699280918
441,kone,-21.0595,164.8658,294.11,79,100,2.37,NC,1699280919
442,glazov,58.1394,52.6584,276.19,86,72,4.24,RU,1699280783
443,priargunsk,50.3691,119.1012,259.69,53,0,0.6,RU,1699280921
444,buka,40.8108,69.1986,292.46,19,100,3.14,UZ,1699280924
445,dudinka,69.4058,86.1778,252.66,100,37,1.12,RU,1699280925
446,askiz,53.1319,90.5264,267.7,79,100,5.67,RU,1699280926
447,yefremov,53.1481,38.0992,283.93,93,100,5.26,RU,1699280927
448,harper,4.375,-7.7169,301.44,77,43,3.4,LR,1699280928
449,sokoni,-6.4333,39.55,300.19,80,53,4.57,TZ,1699280929
450,charlestown,-32.95,151.6667,290.83,85,100,2.68,AU,1699280930
451,beidao,34.5686,105.8933,281.51,60,0,2.05,CN,1699280931
452,pratt,37.6439,-98.7376,283.57,100,26,3.6,US,1699280932
453,kununurra,-15.7667,128.7333,300.14,69,100,0.0,AU,1699280933
454,arteche,12.2645,125.4048,299.68,87,66,2.25,PH,1699280934
455,n'dalatando,-9.2978,14.9116,301.29,57,100,1.23,AO,1699280935
456,playa del ingles,27.7567,-15.5787,298.37,55,27,2.68,ES,1699280936
457,imbituba,-28.24,-48.6703,296.96,60,53,3.83,BR,1699280937
458,tosontsengel,48.7567,98.2839,252.79,95,6,3.11,MN,1699280938
459,quatre cocos,-20.2078,57.7625,297.64,78,83,7.38,MU,1699280939
460,wabash,40.7978,-85.8205,286.73,63,95,8.34,US,1699280940
461,lydenburg,-25.0978,30.4597,299.09,40,73,1.91,ZA,1699280942
462,amahai,-3.3333,128.9167,299.24,87,94,0.68,ID,1699280943
463,kendari,-3.945,122.4989,298.3,85,80,0.47,ID,1699280944
464,murray bridge,-35.1167,139.2667,285.0,96,13,3.56,AU,1699280945
465,tidjikja,18.5564,-11.4271,307.43,12,37,2.86,MR,1699280946
466,moyynkum,44.2914,72.9469,281.36,30,100,9.23,KZ,1699280947
467,hamilton,39.1834,-84.5333,286.72,60,75,4.63,US,1699280948
468,berezovo,63.9381,65.0419,270.48,94,100,2.88,RU,1699280950
469,as sulayyil,20.4607,45.5779,305.29,26,100,3.67,SA,1699280823
470,cannonvale,-20.2833,148.7,296.81,72,16,7.37,AU,1699280952
471,lucas,41.6501,-83.6666,284.9,60,0,6.69,US,1699280953
472,kemijarvi,66.7131,27.4306,274.01,99,100,1.49,FI,1699280954
473,katsuren-haebaru,26.3369,127.8719,299.58,86,100,5.66,JP,1699280955
474,alta,69.9689,23.2717,273.74,75,75,4.12,NO,1699280956
475,baishishan,43.5833,127.5667,270.06,94,100,4.67,CN,1699280957
476,bahia de caraquez,-0.6,-80.4167,299.25,78,100,2.69,EC,1699280958
477,poso,-1.3959,120.7524,298.64,87,94,1.36,ID,1699280959
478,sretensk,52.2453,117.7093,262.27,44,100,0.92,RU,1699280960
479,inderbor,48.55,51.7833,284.98,52,100,5.72,KZ,1699280961
480,ikongo,-21.8833,47.4333,293.16,96,100,1.15,MG,1699280962
481,mishkino,55.3389,63.9175,273.14,69,2,4.41,RU,1699280963
482,faya-largeau,17.9257,19.1043,309.09,9,0,7.2,TD,1699280964
483,hithadhoo,-0.6,73.0833,300.54,79,100,4.81,MV,1699280965
484,mao,39.8885,4.2658,292.46,59,40,3.6,ES,1699280966
485,winnemucca,40.973,-117.7357,285.18,66,75,5.66,US,1699280967
486,rio preto da eva,-2.6994,-59.6997,309.82,40,78,1.66,BR,1699280968
487,kangal,39.2335,37.3911,288.6,46,21,6.24,TR,1699280969
488,horishni plavni,49.0097,33.6455,288.51,53,17,5.61,UA,1699280970
489,suva,-18.1416,178.4415,297.86,88,40,0.0,FJ,1699280972
490,nadym,65.5333,72.5167,264.35,92,100,4.22,RU,1699280973
491,badiyah,22.45,58.8,301.03,49,49,7.84,OM,1699280974
492,walvis bay,-22.9575,14.5053,295.68,49,0,8.75,NA,1699280914
493,belo sur tsiribihina,-19.7,44.55,302.16,63,48,4.02,MG,1699280976
494,masuda,34.6667,131.85,290.06,77,100,8.73,JP,1699280977
495,chornomors'k,46.305,30.6548,292.0,48,2,5.11,UA,1699280978
496,arak,34.0917,49.6892,289.21,26,1,2.37,IR,1699280940
497,bethanie,-26.4833,17.15,301.17,9,62,7.89,NA,1699280980
498,timimoun,29.2639,0.231,307.36,8,0,7.2,DZ,1699280981
499,white hall,34.274,-92.091,288.99,72,40,2.57,US,1699280982
500,guangyuan,32.442,105.823,286.51,67,0,0.96,CN,1699280983
501,pokrovsk,48.282,37.1758,287.01,71,80,4.88,UA,1699280984
502,ascension,30.2169,-90.9001,292.59,95,0,0.0,US,1699280985
503,rojhan,28.6868,69.9534,301.85,20,33,1.01,PK,1699280986
504,la passe,45.5549,-0.8967,287.03,71,8,10.71,FR,1699280987
505,i-n-salah,27.1935,2.4607,309.08,7,37,2.62,DZ,1699280916
506,oodweyne,9.4092,45.064,299.5,35,46,6.53,SO,1699280989
507,aoji,42.5206,130.3953,276.93,75,100,5.64,KP,1699280990
508,vigan,17.5747,120.3869,300.13,84,15,1.26,PH,1699280991
509,shakiso,5.75,38.9167,289.75,94,100,0.98,ET,1699280823
510,saldanha,-33.0117,17.9442,294.18,75,66,5.72,ZA,1699280993
511,mount isa,-20.7333,139.5,292.02,26,3,1.54,AU,1699280994
512,mount gambier,-37.8333,140.7667,283.24,95,2,1.3,AU,1699280997
513,veselynove,47.3567,31.2349,290.58,44,0,4.97,UA,1699280998
514,westville,41.5414,-86.9006,286.72,63,75,7.2,US,1699280999
515,tamanrasset,22.785,5.5228,302.1,9,0,3.09,DZ,1699281000
516,yadgir,16.7667,77.1333,299.34,68,88,3.45,IN,1699281001
517,yemetsk,63.4721,41.7941,274.21,100,100,1.19,RU,1699281002
518,villa gesell,-37.2639,-56.973,297.07,51,1,3.42,AR,1699281003
519,moose jaw,50.4001,-105.5344,274.3,93,100,1.03,CA,1699280858
520,kastamonu,41.5,33.6667,287.12,77,65,3.59,TR,1699280976
521,laguna,38.421,-121.4238,289.36,91,100,3.09,US,1699281009
522,spassk,52.747,87.7545,268.01,97,100,2.24,RU,1699281010
523,popondetta,-8.7537,148.2534,296.37,98,100,1.14,PG,1699281011
524,soledade,-28.8183,-52.5103,295.62,61,0,2.09,BR,1699280847
525,pitkyaranta,61.5734,31.4792,277.32,90,100,2.78,RU,1699281014
526,kyosai,34.8503,128.5886,286.13,61,6,11.25,KR,1699281015
527,houma,29.5958,-90.7195,293.15,84,69,1.79,US,1699281016
528,haiku-pauwela,20.9219,-156.3051,298.17,64,0,6.17,US,1699281017
529,fisterra,42.9049,-9.2629,287.05,51,29,7.51,ES,1699281007
530,ciudad lazaro cardenas,17.9583,-102.2,300.19,77,59,1.66,MX,1699281019
531,pleasant hill,37.948,-122.0608,290.08,87,40,4.12,US,1699281020
532,urengoy,65.9667,78.3667,253.7,100,91,1.56,RU,1699281021
533,grand falls-windsor,48.9332,-55.6649,274.54,61,2,1.34,CA,1699281022
534,nagqu,31.5,92.0,262.46,86,2,1.11,CN,1699281023
535,pisco,-13.7,-76.2167,294.27,78,39,3.09,PE,1699281025
536,conduaga,8.862,117.4893,299.95,83,59,0.72,PH,1699281026
537,sept-iles,50.2001,-66.3821,272.62,58,20,5.14,CA,1699281027
538,carutapera,-1.195,-46.02,305.28,56,34,5.25,BR,1699281028
539,kangding,30.0513,101.9603,279.87,80,86,1.31,CN,1699281029
540,namibe,-15.1961,12.1522,298.17,52,71,5.57,AO,1699281030
541,hadibu,12.65,54.0333,300.29,74,97,2.83,YE,1699281031
542,nuku'alofa,-21.1333,-175.2,297.34,94,75,4.12,TO,1699281032
543,dalandzadgad,43.5708,104.425,272.46,24,0,4.54,MN,1699281033
544,cabedelo,-6.9811,-34.8339,303.52,61,100,5.38,BR,1699281034
545,pokhara,28.2333,83.9833,289.49,72,52,1.76,NP,1699281036
546,bardai,11.65,7.2333,307.41,16,26,5.25,NG,1699281037
547,yel'nya,54.5786,33.1837,281.81,86,100,6.7,RU,1699280756
548,luganville,-15.5333,167.1667,298.5,83,99,4.74,VU,1699281039
549,vryburg,-26.9566,24.7284,292.55,68,95,13.55,ZA,1699281040
550,bykovo,55.6361,38.0803,284.38,96,75,8.94,RU,1699281041
551,chirala,15.8167,80.35,298.6,87,99,2.16,IN,1699281042
552,yasothon,15.75,104.1333,299.27,79,99,4.03,TH,1699281043
553,igrim,63.1906,64.4162,270.51,93,100,2.32,RU,1699281044
554,dali,25.7,100.1833,285.2,75,1,1.73,CN,1699281045
555,goondiwindi,-28.55,150.3167,290.56,75,94,6.01,AU,1699281046
